{
	"markers": [{
			"terminalId": "50001",
			"name": "TAWWIN CENTER ATM",
			"address": "45, PYAY RD, DAGON TSP",
			"lat": "16.785182",
			"long": "96.142669"

		},
		{
			"terminalId": "50002",
			"name": "CITYMART MARKETPLACE ATM",
			"address": "405/A, DHAMMAZAYDI ROAD, SHWE TAUNG KYAR TSP",
			"lat": "16.828173",
			"long": "996.155027"
		},
		{
			"terminalId": "50003",
			"name": "JUNCTION SQUARE",
			"address": "JUNCTION SQUARE SHOPPING MALL, JUNCTION SQUARE COMPOUND, SANCHAUNG TSP",
			"lat": "16.817082",
			"long": "96.130973"
		},
		{
			"terminalId": "50004",
			"name": "JUNCTION SQUARE",
			"address": "JUNCTION SQUARE SHOPPING MALL, JUNCTION SQUARE COMPOUND, SANCHAUNG TSP",
			"lat": "16.817082",
			"long": "96.130973"
		},
		{
			"terminalId": "50005",
			"name": "JUNCTION SQUARE",
			"address": "JUNCTION SQUARE SHOPPING MALL, JUNCTION SQUARE COMPOUND, SANCHAUNG TSP",
			"lat": "16.817082",
			"long": "96.130973"
		},
		{
			"terminalId": "50006",
			"name": "JUNCTION SQUARE",
			"address": "JUNCTION SQUARE SHOPPING MALL, JUNCTION SQUARE COMPOUND, SANCHAUNG TSP",
			"lat": "16.817082",
			"long": "96.130973"
		},
				{
			"terminalId": "50007",
			"name": "CITYMART MARKETPLACE ATM",
			"address": "405/A, DHAMMAZAYDI ROAD, SHWE TAUNG KYAR TSP",
			"lat": "16.828173",
			"long": "996.155027"
		},
		{
			"terminalId": "50008",
			"name": "JUNCTION SQUARE",
			"address": "JUNCTION SQUARE SHOPPING MALL, JUNCTION SQUARE COMPOUND, SANCHAUNG TSP",
			"lat": "16.817082",
			"long": "96.130973"
		},
		{
			"terminalId": "50009",
			"name": "JUNCTION SQUARE",
			"address": "JUNCTION SQUARE SHOPPING MALL, JUNCTION SQUARE COMPOUND, SANCHAUNG TSP",
			"lat": "16.817082",
			"long": "96.130973"
		},
		{
			"terminalId": "50010",
			"name": "JUNCTION SQUARE",
			"address": "JUNCTION SQUARE SHOPPING MALL, JUNCTION SQUARE COMPOUND, SANCHAUNG TSP",
			"lat": "16.817082",
			"long": "96.130973"
		}

	]
}